[
  { "id": "02GA010", "name": "Trent River at Healey Falls", "lat": 44.37, "lon": -77.65 },
  { "id": "02GA047", "name": "Trent River at Campbellford", "lat": 44.30, "lon": -77.80 },
  { "id": "02EA005", "name": "Ottawa River at Ottawa", "lat": 45.42, "lon": -75.70 },
  { "id": "02EA008", "name": "Ottawa River at Carillon", "lat": 45.57, "lon": -74.58 },
  { "id": "02CF007", "name": "Grand River at Brantford", "lat": 43.14, "lon": -80.27 },
  { "id": "02CF011", "name": "Grand River at Kitchener", "lat": 43.45, "lon": -80.50 },
  { "id": "02CF401", "name": "Speed River at Guelph", "lat": 43.55, "lon": -80.24 },
  { "id": "02HA003", "name": "Credit River at Erindale", "lat": 43.55, "lon": -79.65 },
  { "id": "02HC017", "name": "Humber River at Weston", "lat": 43.72, "lon": -79.54 },
  { "id": "02HB006", "name": "Etobicoke Creek at Etobicoke", "lat": 43.73, "lon": -79.56 },
  { "id": "02GG006", "name": "Moira River at Belleville", "lat": 44.18, "lon": -77.38 },
  { "id": "02GG003", "name": "Napanee River at Napanee", "lat": 44.25, "lon": -76.95 },
  { "id": "02JC008", "name": "Mississippi River at Galetta", "lat": 45.37, "lon": -76.37 },
  { "id": "02JE009", "name": "Rideau River at Manotick", "lat": 45.23, "lon": -75.68 },
  { "id": "02KF011", "name": "Madawaska River at Arnprior", "lat": 45.43, "lon": -76.37 },
  { "id": "02LB005", "name": "Petawawa River at Petawawa", "lat": 45.90, "lon": -77.29 },
  { "id": "02DD013", "name": "Saugeen River at Walkerton", "lat": 44.13, "lon": -81.14 },
  { "id": "02DD014", "name": "Saugeen River at Hanover", "lat": 44.15, "lon": -81.02 },
  { "id": "02ED012", "name": "Maitland River at Wingham", "lat": 43.89, "lon": -81.31 },
  { "id": "02FA004", "name": "Sydenham River at Strathroy", "lat": 42.96, "lon": -81.62 },
  { "id": "02GB010", "name": "Otonabee River at Peterborough", "lat": 44.30, "lon": -78.32 },
  { "id": "02HA012", "name": "Black River at Washago", "lat": 44.75, "lon": -79.34 },
  { "id": "02HA014", "name": "Severn River at Gloucester Pool", "lat": 44.83, "lon": -79.57 },
  { "id": "02EC002", "name": "Thames River at London", "lat": 42.98, "lon": -81.25 },
  { "id": "02EC011", "name": "Thames River at Ingersoll", "lat": 43.04, "lon": -80.88 },
  { "id": "02CB001", "name": "Ausable River at St. Elmo", "lat": 43.25, "lon": -81.60 },
  { "id": "02BF003", "name": "Sydenham River at Florence", "lat": 42.73, "lon": -82.04 },
  { "id": "02AB001", "name": "Detroit River at Sandwich", "lat": 42.31, "lon": -83.07 },
  { "id": "02AC001", "name": "St. Clair River at Courtright", "lat": 42.82, "lon": -82.49 },
  { "id": "04CA002", "name": "Nipigon River at Alexander", "lat": 49.11, "lon": -88.16 },
  { "id": "04CD001", "name": "Kaministiquia River at Thunder Bay", "lat": 48.38, "lon": -89.22 },
  { "id": "04CB001", "name": "Pigeon River at Middle Falls", "lat": 48.00, "lon": -89.67 },
  { "id": "04DA001", "name": "English River at Umfreville", "lat": 50.25, "lon": -93.17 },
  { "id": "04HA001", "name": "Kenora outflow (Lake of the Woods)", "lat": 49.77, "lon": -94.50 },
  { "id": "02KH001", "name": "Mattawa River at Mattawa", "lat": 46.33, "lon": -78.70 },
  { "id": "02LB013", "name": "South Branch Muskrat Lake", "lat": 45.68, "lon": -76.62 },
  { "id": "02GA018", "name": "Crowe River at Marmora", "lat": 44.48, "lon": -77.68 },
  { "id": "02HD003", "name": "Nottawasaga River at Angus", "lat": 44.32, "lon": -79.89 },
  { "id": "02HC029", "name": "Holland River at Bradford", "lat": 44.12, "lon": -79.57 },
  { "id": "02GE007", "name": "Salmon River at Shannonville", "lat": 44.22, "lon": -77.20 },
  { "id": "02LA004", "name": "Magnetawan River at Magnetawan", "lat": 45.67, "lon": -79.63 },
  { "id": "02LA007", "name": "South River at South River", "lat": 45.83, "lon": -79.38 },
  { "id": "02JF003", "name": "Bonnechere River at Renfrew", "lat": 45.47, "lon": -76.68 },
  { "id": "02ME002", "name": "Montreal River at Latchford", "lat": 47.30, "lon": -79.83 },
  { "id": "02NE013", "name": "Mattagami River at Kapuskasing", "lat": 49.42, "lon": -82.43 },
  { "id": "02DD024", "name": "Teeswater River at Mildmay", "lat": 44.05, "lon": -81.12 },
  { "id": "04CC002", "name": "Current River at Thunder Bay", "lat": 48.43, "lon": -89.27 },
  { "id": "02GA017", "name": "Ouse River at Cambridge", "lat": 43.36, "lon": -80.31 },
  { "id": "02GD004", "name": "Skootamatta River at Actinolite", "lat": 44.55, "lon": -77.33 },
  { "id": "02HL004", "name": "Seguin River at Parry Sound", "lat": 45.33, "lon": -79.90 }
]
